{
    "routes": [
    {
        "routeID":"1",
        "name":"Camden Town",
        "start":{
            "lat":"51.541837",
            "lng":"-0.139199"
        },    
        "end":{
            "lat":"51.550396",
            "lng":"-0.140526"
        },

        "day":"Sunday",
        "time":"9am",
        "highlights":"Camden Lock. Camden Market. Roundhouse. Camden High Street. Electric Ballroom.",
        "routeImage":"route-placeholder-image.jpg"
    }, 
    {
        "routeID":"2",
        "name":"Regents Park",
        "start":{
            "lat":"51.523751",
            "lng":"-0.154577"
        },    
        "end":{
            "lat":"51.541565",
            "lng":"-0.161842"
        },
            
        "day":"Sunday",
        "time":"10am",
        "highlights":"Rose Garden. Boating Lakes. Mosque. Devonshire Terrace. Open Air Theatre. Camden Lock. Regents Canal.",
        "routeImage":"route-placeholder-image.jpg"
    }, 
    {
        "routeID":"3",
        "name":"Soho",
        "start":{
            "lat":"51.515173",
            "lng":"-0.132238"
        },    
        "end":{
            "lat":"51.511625",
            "lng":"0.137194"
        },    
        "day":"Saturday",
        "time":"9am",
        "highlights":"Old Compton Street. Soho Square. China Town. Golden Square. Theatre Land. Italian Soho.",
        "routeImage":"route-placeholder-image.jpg"

    },
    {
        "routeID":"4",
        "name":"Hampstead Heath",
        "start":{
            "lat":"51.555236",
            "lng":"-0.151021"
        },    
        "end":{
            "lat":"51.572062",
            "lng":"-0.167575"
        },    
        "day":"Sunday",
        "time":"9am",
        "highlights":"Jack Straws Castle. Kenwood. Parliament Hill. Hampstead Village. Highgate Village.",
        "routeImage":"route-placeholder-image.jpg"

    },
    {
        "routeID":"5",
        "name":"Greenwich",
        "start":{
            "lat":"51.483361",
            "lng":"-0.009504"
        },    
        "end":{
            "lat":"51.467503",
            "lng":"-0.009048"
        },    
        "day":"Sunday",
        "time":"9am",
        "highlights":"Cutty Sark. Greenwich Time Museum. The Meridian. Blackheath. Maritime Museum. Greenwich Park.",
        "routeImage":"route-placeholder-image.jpg"

    },
    {
        "routeID":"6",
        "name":"Hyde Park",
        "start":{
            "lat":"51.510197",
            "lng":"-0.196234"
        },    
        "end":{
            "lat":"51.503453",
            "lng":"-0.204237"
        },
        "day":"Saturday",
        "time":"10am",
        "highlights":"Hyde Park Corner. Serpentine. Speakers Corner. Hyde Park Gallery. Queensway. Bayswater. ",
        "routeImage":"route-placeholder-image.jpg"

    },
    {
        "routeID":"7",
        "name":"Southbank",
        "start":{
            "lat":"51.507789",
            "tlng":"-0.114468"
        },
        "end":{ 
            "lat":"51.504348",
            "lng":"-0.114468"
        },
        "day":"Sunday",
        "time":"11am",
        "highlights":"National Theatre. Potters Fields. London Bridge. Tower Bridge. The Golden Hind. HMS Belfast. Southwark Bridge.",
        "routeImage":"route-placeholder-image.jpg"

    },
    {
        "routeID":"8",
        "name":"City of London",
        "start":{ 
            "lat":"51.506997",
            "lng":"-0.071797"
        },
        "end":{
            "lat":"51.521948",
            "lng":"-0.093819"
        },
        "day":"Sunday",
        "time":"11am",
        "highlights":"St Pauls. Lloyds of London. The Gherkin. The Tower of London. St Olav's Church. London Wall. The Barbican. ",
        "routeImage":"route-placeholder-image.jpg"
    },
    {
        "routeID":"9",
        "name":"Wapping",
        "start":{
            "lat":"51.506997",
            "lng":"-0.071797"
        },
        "end":{
            "lat":"51.504347",
            "lng":"-0.056115"
        },
        "day":"Sunday",
        "time":"11am",
        "highlights":"St Katherines Dock. Tobacco Wharf. Tower Bridge. Vintners Wharf. The Captain Kidd. ",
        "routeImage":"route-placeholder-image.jpg"
    },
    {
        "routeID":"10",
        "name":"Bloomsbury",
        "start":{
            "lat":"51.518811",
            "lng":"-0.122627"
        },
        "end":{
            "lat":"51.526648",
            "lng":"-0.132176"
        },
        "day":"Sunday",
        "time":"9am",
        "highlights":"Coram Fields. Senate House. British Museum. Friends House. Russel Square. Bedford Square. ",
        "routeImage":"route-placeholder-image.jpg"
    },
    {
        "routeID":"11",
        "name":"Notting Hill",
        "start":{
            "lat":"51.509669",
            "lng":"-0.189522"
        },
        "end":{
            "lat":"51.521082",
            "lng":"-0.200776"
        },
        "day":"Sunday",
        "time":"9am",
        "highlights":"Hyde Park. Portobello Road. The Churchill. Greek Orthodox Cathedral. Notting Hill Movie Locations.",
        "routeImage":"route-placeholder-image.jpg"
    },
    {
        "routeID":"12",
        "name":"Fitzrovia",
        "start":{
            "lat":"51.523172",
            "lng":"-0.14638"
        },
        "end":{
            "lat":"51.51904",
            "lng":"-0.130096"
        },
        "day":"Sunday",
        "time":"9am",
        "highlights":"Park Square. Cavendish Square. The Cartoon Museum. Charlotte Street. BT Tower.",
        "routeImage":"route-placeholder-image.jpg"
    },
    {
        "routeID":"13",
        "name":"Kensington and Chelsea",
        "start":{
            "lat":"51.497049",
            "lng":"-0.169995"
        },
        "end":{
            "lat":"51.480747",
            "lng":"-0.16512"
        },
        "day":"Sunday",
        "time":"9am",
        "highlights":"Kings Road. Sloane Square. Stamford Bridge. Army Museum. Chelsea Hospital. Chelsea Harbour.",
        "routeImage":"route-placeholder-image.jpg"
    },
    {
        "routeID":"14",
        "name":"Covent Garden",
        "start":{ 
            "lat":"51.507489",
            "lng":"-0.122273"
        },
        "end":{
            "lat":"51.518811",
            "lng":"-0.122627"
        },
        "day":"Saturday",
        "time":"9am",
        "highlights":"Covent Garden Piazza. The Transport Museum. The Strand. Trafalgar Square. National Gallery."
    },
    {
        "routeID":"15",
        "name":"East End",
        "start":{
            "lat":"51.520133",
            "lng":"-0.076662"
        },
        "end":{
            "lat":"51.516611",
            "lng":"-0.040871"
        },
        "day":"Sunday",
        "time":"9am",
        "highlights":"Spitalfields. St Luke's Church. Brick Lane. The Truman Brewery. Whitechapel. Tayyab's.",
        "routeImage":"route-placeholder-image.jpg"
    },
    {
        "routeID":"16",
        "name":"Hoxton",
        "start":{ 
            "lat":"51.525686",
            "lng":"-0.087377"
        },
        "end":{
            "lat":"51.548627",
            "lng":"-0.092146"
        },
        "day":"Saturday",
        "time":"9am",
        "highlights":"Printworks. St Leonards Church. Boundary Gardens. Wesley's Chapel.",
        "routeImage":"route-placeholder-image.jpg"
    },
    {
        "routeID":"17",
        "name":"Clerkenwell",
        "start":{
            "lat":"51.518575",
            "lng":"-0.096838"
        },
        "end":{
            "lat":"51.530006",
            "lng":"-0.108412"
        },
        "day":"Sunday",
        "time":"9am",
        "highlights":"Lenin's House. Bunhill Fields. Church of St Peter. St John's Gate. Spitalfields. Barbican. Exmouth Street. Grays Inn. ",
        "routeImage":"route-placeholder-image.jpg"
    },
    {
        "routeID":"18",
        "name":"Westminster",
        "start":{
            "lat":"51.491413",
            "lng":"-0.12769"
        },
        "end":{
            "lat":"51.50677",
            "lng":"-0.142812"
        },
        "day":"Sunday",
        "time":"9am",
        "highlights":"Green Park. St James Park. Buckingham Palace. The Mall. Trafalgar Square. The ICA. Carlton Terrace.",
        "routeImage":"route-placeholder-image.jpg"
    },
    {
        "routeID":"19",
        "name":"Belgravia",
        "start":{
            "lat":"51.504393",
            "lng":"-0.152834"
        },
        "end":{
            "lat":"51.492266",
            "lng":"-0.156427"
        },
        "day":"Sunday",
        "time":"10am",
        "highlights":"Sloane Square. Eaton Square. Hyde Park Corner. Belgrave Square Gardens. Embassies. Harrods.",
        "routeImage":"route-placeholder-image.jpg"
    }
    ]
}